     2.11           OBSERVATION DATA    G (GPS)             RINEX VERSION / TYPE
GPP.DLL V3.1.30.1                       15 - APR - 19 15:17 PGM / RUN BY / DATE 
DR_L                                                        MARKER NAME         
                                                            MARKER NUMBER       
                                                            OBSERVER / AGENCY   
                    ASHTECH UZ-12       0A12                REC # / TYPE / VERS 
                                                            ANT # / TYPE        
  1049966.7414 -4801866.2446  4051140.6826                  APPROX POSITION XYZ 
        1.4000       -0.0000       -0.0000                  ANTENNA: DELTA H/E/N
     1     1                                                WAVELENGTH FACT L1/2
     9    L1    L2    C1    P1    P2    D1    D2    S1    S2# / TYPES OF OBSERV 
    10.000                                                  INTERVAL            
  2019     4     7    18    23   30.0000000     GPS         TIME OF FIRST OBS   
  2019     4     7    18    50   40.0000000     GPS         TIME OF LAST OBS    
    13                                                      LEAP SECONDS        
    12                                                      # OF SATELLITES     
   G01    24    24    24    24    24    24    24    24    24PRN / # OF OBS      
   G07   164   164   164   164   164   164   164   164   164PRN / # OF OBS      
   G08   164   164   164   164   164   164   164   164   164PRN / # OF OBS      
   G09   164   164   164   164   164   164   164   164   164PRN / # OF OBS      
   G11   164   164   164   164   164   164   164   164   164PRN / # OF OBS      
   G16   164   164   164   164   164   164   164   164   164PRN / # OF OBS      
   G18   161   158   161   158   158   161   158   161   158PRN / # OF OBS      
   G23   164   164   164   164   164   164   164   164   164PRN / # OF OBS      
   G26     2     2     2     2     2     2     2     2     2PRN / # OF OBS      
   G27   164   164   164   164   164   164   164   164   164PRN / # OF OBS      
   G28   151   151   151   151   151   151   151   151   151PRN / # OF OBS      
   G30   164   164   164   164   164   164   164   164   164PRN / # OF OBS      
                                                            END OF HEADER       
 19  4  7 18 23 30.0000000  0 10G23G26G16G07G08G09G30G11G28G27
  24280434.69727  18911484.75066  22762574.326    22762573.449    22762575.922  
     -3146.815       -2452.064          45.000          40.000  
  -1049086.28626   -889253.14565  25259493.448    25259492.361    25259500.936  
     -2871.910       -2237.852          41.000          34.000  
  24199313.21827  18847894.09166  22911505.014    22911503.872    22911507.152  
     -2742.383       -2136.922          46.000          40.000  
  23591702.12028  18394514.66667  21085896.281    21085895.956    21085898.687  
      2040.411        1589.931          53.000          46.000  
  23805348.89528  18551650.80867  20253234.362    20253233.067    20253238.338  
       371.448         289.440          52.000          46.000  
  24100844.82627  18775737.40067  21644782.090    21644781.354    21644787.450  
     -1828.443       -1424.761          47.000          43.000  
  23478041.70627  18303152.14166  23387211.991    23387211.190    23387216.952  
      3157.412        2460.321          45.000          40.000  
  23429977.58327  18263208.43566  23673186.757    23673186.263    23673190.027  
      3590.127        2797.502          43.000          38.000  
  -1605013.79627  -1246470.36766  24943788.865    24943787.591    24943792.860  
      2423.098        1888.128          42.000          37.000  
  24116744.63828  18787140.55267  21000631.602    21000630.882    21000636.108  
     -1940.179       -1511.828          52.000          47.000  
 19  4  7 18 23 40.0000000  0 10G23G26G16G07G08G09G30G11G28G27
  24311917.76727  18936016.99466  22768565.432    22768564.525    22768566.939  
     -3150.478       -2454.918          45.000          39.000  
  -1020368.36727   -866875.53465  25264958.216    25264956.982    25264965.574  
     -2872.506       -2238.316          42.000          34.000  
  24226742.30827  18869267.40866  22916724.651    22916723.431    22916726.772  
     -2743.898       -2138.102          45.000          40.000  
  23571315.44228  18378628.94967  21082016.858    21082016.471    21082019.253  
      2036.273        1586.706          53.000          46.000  
  23801666.22828  18548781.19967  20252533.567    20252532.256    20252537.550  
       364.329         283.893          52.000          46.000  
  24119158.83527  18790008.05767  21648267.192    21648266.401    21648272.456  
     -1834.908       -1429.798          47.000          43.000  
  23446472.37027  18278552.66466  23381204.571    23381203.773    23381209.534  
      3155.414        2458.764          45.000          40.000  
  23394081.01427  18235237.08266  23666356.004    23666355.346    23666359.119  
      3588.550        2796.273          43.000          38.000  
  -1629236.89326  -1265345.48866  24939179.488    24939178.070    24939183.326  
      2420.864        1886.388          39.000          37.000  
  24136174.44428  18802280.66467  21004328.984    21004328.241    21004333.493  
     -1946.506       -1516.758          52.000          47.000  
 19  4  7 18 23 50.0000000  0  9G23G16G07G08G09G30G11G28G27
  24343428.78227  18960571.02366  22774561.724    22774560.871    22774563.166  
     -3152.271       -2456.315          44.000          39.000  
  24254180.24327  18890647.59866  22921945.897    22921944.682    22921948.048  
     -2743.968       -2138.157          46.000          40.000  
  23550964.27228  18362770.90367  21078144.178    21078143.765    21078146.570  
      2033.566        1584.597          53.000          46.000  
  23798048.91928  18545962.52167  20251845.243    20251843.890    20251849.217  
       358.877         279.644          52.000          46.000  
  24137528.84027  18804322.33167  21651762.863    21651762.110    21651768.150  
     -1839.567       -1433.429          47.000          43.000  
  23414915.28027  18253962.72766  23375199.526    23375198.671    23375204.473  
      3155.545        2458.866          45.000          40.000  
  23358196.90027  18207275.44766  23659527.404    23659526.807    23659530.531  
      3588.154        2795.964          42.000          38.000  
  -1653447.66726  -1284210.98866  24934571.990    24934570.836    24934576.257  
      2421.088        1886.562          39.000          37.000  
  24155659.20928  18817463.59367  21008036.841    21008036.084    21008041.324  
     -1950.849       -1520.142          53.000          47.000  
 19  4  7 18 24  0.0000000  0 10G23G18G16G07G08G09G30G11G28G27
  24374964.27127  18985144.12566  22780562.783    22780561.914    22780564.140  
     -3155.477       -2458.813          45.000          39.000  
  -1388217.66737         0.00031  24018840.129           0.000           0.000  
      3499.080        2726.556          42.000           0.000  
  24281623.46427  18912031.92766  22927168.258    22927166.962    22927170.345  
     -2745.162       -2139.087          46.000          40.000  
  23530645.22228  18346937.87767  21074277.592    21074277.189    21074279.980  
      2029.769        1581.638          53.000          46.000  
  23794493.60228  18543192.14467  20251168.736    20251167.319    20251172.670  
       351.809         274.137          52.000          46.000  
  24155951.17628  18818677.39667  21655268.615    21655267.787    21655273.777  
     -1845.353       -1437.937          48.000          44.000  
  23383367.05427  18229379.71066  23369196.081    23369195.227    23369201.058  
      3153.615        2457.362          46.000          40.000  
  23322321.86927  18179320.90366  23652700.509    23652700.025    23652703.676  
      3586.427        2794.618          42.000          38.000  
  -1677649.60326  -1303069.62466  24929966.520    24929965.408    24929970.817  
      2419.502        1885.326          39.000          36.000  
  24175195.31228  18832686.52967  21011754.491    21011753.664    21011758.933  
     -1956.705       -1524.705          52.000          47.000  
 19  4  7 18 24 10.0000000  0 10G23G18G16G07G08G09G30G11G28G27
  24406524.83727  19009736.75466  22786568.590    22786567.661    22786569.836  
     -3157.718       -2460.559          45.000          39.000  
  -1423213.01927         0.00031  24012182.952           0.000           0.000  
      3498.998        2726.492          44.000           0.000  
  24309072.77627  18933420.97766  22932391.634    22932390.363    22932393.809  
     -2745.565       -2139.401          45.000          40.000  
  23510359.08628  18331130.49767  21070417.331    21070416.875    21070419.671  
      2026.538        1579.121          53.000          46.000  
  23791001.05228  18540470.67567  20250504.145    20250502.694    20250508.076  
       345.776         269.436          52.000          46.000  
  24174426.62027  18833073.83967  21658784.369    21658783.552    21658789.544  
     -1850.354       -1441.834          47.000          44.000  
  23351828.46827  18204804.20166  23363194.462    23363193.594    23363199.522  
      3153.259        2457.085          44.000          40.000  
  23286456.76727  18151374.08766  23645875.644    23645875.141    23645878.742  
      3585.642        2794.007          42.000          37.000  
  -1701842.02626  -1321920.83966  24925362.824    24925361.696    24925367.176  
      2418.055        1884.199          38.000          36.000  
  24194783.46228  18847950.02167  21015481.992    21015481.161    21015486.451  
     -1961.580       -1528.504          52.000          47.000  
 19  4  7 18 24 20.0000000  0 10G23G18G16G07G08G09G30G11G28G27
  24438114.14027  19034351.78866  22792579.767    22792578.944    22792581.083  
     -3160.643       -2462.839          44.000          39.000  
  -1458200.26227         0.00031  24005525.639           0.000           0.000  
      3497.882        2725.622          42.000           0.000  
  24336531.95827  18954817.73566  22937616.898    22937615.663    22937619.082  
     -2746.640       -2140.239          45.000          40.000  
  23490109.84228  18315351.87167  21066564.040    21066563.551    21066566.374  
      2022.788        1576.198          53.000          46.000  
  23787575.16728  18537801.15767  20249852.211    20249850.742    20249856.163  
       339.178         264.295          52.000          46.000  
  24192958.95128  18847514.60867  21662310.942    21662310.167    21662316.104  
     -1856.337       -1446.496          48.000          44.000  
  23320303.58227  18180239.37066  23357195.522    23357194.561    23357200.537  
      3151.466        2455.688          45.000          40.000  
  23250605.56227  18123438.09666  23639053.435    23639052.839    23639056.511  
      3584.559        2793.163          43.000          38.000  
  -1726020.88326  -1340761.49266  24920761.739    24920760.652    24920766.160  
      2417.184        1883.520          39.000          36.000  
  24214427.48628  18863257.05467  21019220.117    21019219.293    21019224.588  
     -1967.442       -1533.072          52.000          47.000  
 19  4  7 18 24 30.0000000  0 10G23G18G16G07G08G09G30G11G28G27
  24469725.84327  19058984.26966  22798595.191    22798594.331    22798596.609  
     -3162.148       -2464.011          43.000          39.000  
  -1493185.61127  -1122084.85176  23998867.985    23998866.985    23998875.092  
      3498.308        2725.954          43.000          38.000  
  24363994.63327  18976217.21766  22942842.812    22942841.608    22942845.070  
     -2746.306       -2139.979          45.000          40.000  
  23469891.19928  18299597.08667  21062716.568    21062716.049    21062718.900  
      2020.291        1574.253          53.000          46.000  
  23784209.37228  18535178.46067  20249211.700    20249210.236    20249215.673  
       333.709         260.033          52.000          46.000  
  24211541.65828  18861994.63967  21665847.218    21665846.348    21665852.268  
     -1860.624       -1449.837          48.000          44.000  
  23288785.95127  18155680.18766  23351197.889    23351196.954    23351202.861  
      3151.614        2455.803          45.000          40.000  
  23214762.01726  18095508.08066  23632232.635    23632232.012    23632235.714  
      3584.030        2792.751          41.000          38.000  
  -1750192.74436  -1359596.67576  24916161.831    24916160.803    24916166.385  
      2416.672        1883.121          37.000          36.000  
  24234120.84728  18878602.52567  21022967.637    21022966.820    21022972.110  
     -1971.520       -1536.249          52.000          47.000  
 19  4  7 18 24 40.0000000  0 10G23G18G16G07G08G09G30G11G28G27
  24501362.64627  19083636.30366  22804615.580    22804614.735    22804616.978  
     -3164.695       -2465.996          46.000          39.000  
  -1528165.97227  -1149342.27166  23992211.575    23992210.633    23992218.357  
      3497.951        2725.676          42.000          38.000  
  24391463.75527  18997621.70966  22948070.099    22948068.864    22948072.272  
     -2746.993       -2140.514          46.000          40.000  
  23449706.18828  18283868.50867  21058875.507    21058874.953    21058877.813  
      2017.184        1571.832          53.000          46.000  
  23780906.76928  18532605.00567  20248583.250    20248581.758    20248587.208  
       327.229         254.984          51.000          46.000  
  24230177.65327  18876516.17567  21669393.491    21669392.671    21669398.589  
     -1866.029       -1454.049          47.000          44.000  
  23257278.69927  18131129.07466  23345202.251    23345201.336    23345207.256  
      3150.159        2454.669          45.000          41.000  
  23178929.17527  18067586.40766  23625413.912    23625413.224    23625416.989  
      3583.159        2792.072          42.000          38.000  
  -1774354.58826  -1378424.01265  24911563.936    24911562.939    24911568.559  
      2415.879        1882.503          36.000          35.000  
  24253866.40928  18893988.67267  21026725.055    21026724.260    21026729.578  
     -1977.135       -1540.625          52.000          47.000  
 19  4  7 18 24 50.0000000  0 10G23G18G16G07G08G09G30G11G28G27
  24533024.53827  19108307.91366  22810640.951    22810639.886    22810641.845  
     -3167.471       -2468.159          45.000          39.000  
  -1563141.23927  -1176595.69566  23985556.107    23985555.078    23985562.064  
      3497.434        2725.273          43.000          38.000  
  24418939.40327  19019031.30266  22953298.588    22953297.266    22953300.704  
     -2747.523       -2140.927          45.000          40.000  
  23429555.07428  18268166.34767  21055040.830    21055040.311    21055043.200  
      2013.276        1568.786          52.000          46.000  
  23777667.48028  18530080.88967  20247966.843    20247965.338    20247970.795  
       320.696         249.893          52.000          46.000  
  24248866.91427  18891079.24567  21672949.974    21672949.118    21672955.010  
     -1871.694       -1458.463          47.000          43.000  
  23225781.90027  18106586.13366  23339208.610    23339207.634    23339213.631  
      3149.179        2453.906          45.000          41.000  
  23143107.28327  18039673.28066  23618597.287    23618596.367    23618600.217  
      3581.689        2790.926          42.000          38.000  
  -1798506.28126  -1397243.47366  24906968.149    24906967.119    24906972.539  
      2414.232        1881.220          37.000          36.000  
  24273664.22728  18909415.54167  21030492.495    21030491.666    21030496.992  
     -1982.475       -1544.786          53.000          47.000  
 19  4  7 18 25  0.0000000  0 10G23G18G16G07G08G09G30G11G28G27
  24564713.79427  19133000.85466  22816670.972    22816670.006    22816672.108  
     -3170.120       -2470.223          43.000          39.000  
  -1598108.85927  -1203843.18566  23978902.219    23978901.343    23978907.451  
      3496.690        2724.694          44.000          38.000  
  24446423.93327  19040447.81066  22958528.630    22958527.384    22958530.868  
     -2748.565       -2141.739          45.000          40.000  
  23409440.13728  18252492.37267  21051213.060    21051212.554    21051215.440  
      2010.005        1566.238          53.000          46.000  
  23774493.57628  18527607.71867  20247362.901    20247361.354    20247366.843  
       314.386         244.976          52.000          46.000  
  24267611.66628  18905685.52367  21676516.960    21676516.150    21676522.016  
     -1876.890       -1462.512          48.000          44.000  
  23194297.99727  18082053.23666  23333217.398    23333216.423    23333222.457  
      3147.783        2452.818          44.000          41.000  
  23107298.66827  18011770.48366  23611783.073    23611782.153    23611786.050  
      3580.241        2789.798          42.000          38.000  
  -1822645.64835  -1416053.32876  24902374.439    24902373.374    24902378.887  
      2413.084        1880.325          35.000          36.000  
  24293516.45828  18924884.81367  21034270.276    21034269.413    21034274.767  
     -1987.906       -1549.018          53.000          47.000  
 19  4  7 18 25 10.0000000  0  9G23G18G16G07G08G09G30G11G27
  24596426.45927  19157711.99866  22822705.591    22822704.792    22822707.046  
     -3172.511       -2472.086          44.000          39.000  
  -1633072.67027  -1231087.67766  23972248.868    23972247.889    23972254.019  
      3496.119        2724.249          44.000          39.000  
  24473913.21027  19061868.01966  22963759.710    22963758.368    22963761.878  
     -2749.605       -2142.549          44.000          40.000  
  23389357.55428  18236843.60967  21047391.514    21047390.939    21047393.861  
      2006.459        1563.475          53.000          46.000  
  23771381.31528  18525182.57767  20246770.645    20246769.093    20246774.618  
       308.038         240.030          52.000          46.000  
  24286407.93327  18920331.97067  21680093.870    21680092.954    21680098.811  
     -1882.139       -1466.602          47.000          43.000  
  23162823.14627  18057527.39766  23327227.898    23327226.994    23327233.009  
      3146.735        2452.001          45.000          41.000  
  23071499.63127  17983875.14566  23604970.683    23604969.804    23604973.672  
      3579.111        2788.918          43.000          38.000  
  24313419.14128  18940393.39567  21038057.650    21038056.764    21038062.131  
     -1992.967       -1552.961          52.000          47.000  
 19  4  7 18 25 20.0000000  0 10G23G18G16G07G08G09G30G11G28G27
  24628165.83527  19182443.95866  22828745.615    22828744.562    22828746.863  
     -3175.687       -2474.561          44.000          39.000  
  -1668028.94727  -1258326.30966  23965597.300    23965595.978    23965601.868  
      3494.749        2723.181          44.000          39.000  
  24501410.80827  19083294.72066  22968992.298    22968991.013    22968994.555  
     -2750.498       -2143.245          46.000          40.000  
  23369310.94228  18221222.87667  21043576.796    21043576.189    21043579.098  
      2002.334        1560.260          53.000          46.000  
  23768334.13128  18522808.14867  20246190.808    20246189.234    20246194.761  
       300.963         234.517          52.000          46.000  
  24305259.18727  18935021.24967  21683681.121    21683680.236    21683686.080  
     -1888.203       -1471.327          47.000          43.000  
  23131360.93827  18033011.39466  23321240.914    23321239.914    23321245.911  
      3145.182        2450.791          44.000          41.000  
  23035713.72727  17955990.03266  23598160.951    23598160.076    23598163.870  
      3577.567        2787.715          43.000          38.000  
  -1870895.13635  -1453650.29275  24893192.936    24893191.714    24893197.340  
      2410.537        1878.341          35.000          35.000  
  24333375.73628  18955943.97967  21041855.263    21041854.374    21041859.758  
     -1998.821       -1557.523          52.000          47.000  
 19  4  7 18 25 30.0000000  0 10G23G18G16G07G08G09G30G11G28G27
  24659928.79127  19207194.29866  22834789.880    22834788.877    22834791.154  
     -3177.380       -2475.881          45.000          40.000  
  -1702980.77127  -1285561.47866  23958945.904    23958944.814    23958950.544  
      3494.955        2723.342          43.000          39.000  
  24528913.64827  19104725.48466  22974225.983    22974224.626    22974228.182  
     -2750.685       -2143.391          46.000          40.000  
  23349297.34828  18205627.86867  21039768.329    21039767.725    21039770.644  
      1999.816        1558.298          53.000          46.000  
  23765349.01928  18520482.08967  20245622.758    20245621.169    20245626.738  
       295.460         230.229          52.000          46.000  
  24324162.25827  18949750.91167  21687278.229    21687277.352    21687283.225  
     -1892.889       -1474.978          47.000          43.000  
  23099908.37027  18008502.92066  23315255.572    23315254.626    23315260.720  
      3144.908        2450.578          44.000          41.000  
  22999938.01727  17928112.86266  23591352.949    23591352.185    23591355.960  
      3576.695        2787.035          42.000          38.000  
  -1895004.85935  -1472437.05675  24888604.972    24888603.712    24888608.877  
      2411.397        1879.011          35.000          35.000  
  24353383.06428  18971534.10167  21045662.518    21045661.631    21045667.042  
     -2003.436       -1561.119          52.000          47.000  
 19  4  7 18 25 40.0000000  0 10G23G18G16G07G08G09G30G11G28G27
  24691717.75727  19231964.91666  22840839.053    22840838.086    22840840.304  
     -3179.546       -2477.568          44.000          39.000  
  -1737925.57827  -1312791.16566  23952296.045    23952295.162    23952300.786  
      3494.946        2723.334          44.000          39.000  
  24556423.99227  19126162.10766  22979461.043    22979459.672    22979463.236  
     -2750.951       -2143.598          46.000          40.000  
  23329319.28828  18190060.55067  21035966.674    21035966.012    21035968.952  
      1996.960        1556.073          53.000          45.000  
  23762428.24028  18518206.15667  20245066.957    20245065.366    20245070.942  
       289.634         225.689          52.000          46.000  
  24343119.39227  18964522.69067  21690885.739    21690884.788    21690890.637  
     -1897.665       -1478.700          47.000          43.000  
  23068467.92227  17984003.87866  23309272.694    23309271.758    23309277.787  
      3144.002        2449.872          45.000          41.000  
  22964175.03427  17900245.62066  23584547.368    23584546.730    23584550.646  
      3576.174        2786.629          43.000          38.000  
  -1919103.17136  -1491214.91475  24884019.130    24884018.026    24884023.483  
      2409.593        1877.605          36.000          35.000  
  24373443.40228  18987165.53667  21049479.866    21049478.984    21049484.415  
     -2008.163       -1564.802          52.000          47.000  
 19  4  7 18 25 50.0000000  0  9G23G18G16G07G08G09G30G11G27
  24723528.55227  19256752.54666  22846892.400    22846891.486    22846893.698  
     -3182.318       -2479.728          45.000          39.000  
  -1772867.05827  -1340018.26166  23945646.839    23945645.831    23945651.421  
      3493.703        2722.366          42.000          38.000  
  24583938.08527  19147601.65766  22984696.841    22984695.415    22984698.947  
     -2751.816       -2144.272          45.000          40.000  
  23309373.03328  18174518.01567  21032171.044    21032170.369    21032173.298  
      1992.773        1552.810          53.000          45.000  
  23759568.16328  18515977.53067  20244522.735    20244521.100    20244526.702  
       282.858         220.409          52.000          46.000  
  24362126.81827  18979333.66867  21694502.690    21694501.766    21694507.639  
     -1903.592       -1483.318          47.000          43.000  
  23037035.83327  17959511.35866  23303291.409    23303290.382    23303296.410  
      3142.734        2448.884          44.000          41.000  
  22928420.99727  17872385.33566  23577743.703    23577742.944    23577746.780  
      3574.710        2785.488          42.000          38.000  
  24393552.90928  19002835.28167  21053306.594    21053305.691    21053311.137  
     -2013.648       -1569.076          52.000          47.000  
 19  4  7 18 26  0.0000000  0  9G23G18G16G07G08G09G30G11G27
  24755366.39127  19281561.23466  22852951.098    22852950.116    22852952.300  
     -3185.541       -2482.240          46.000          39.000  
  -1807799.79127  -1367238.51566  23938999.116    23938998.311    23939004.027  
      3492.534        2721.455          43.000          39.000  
  24611461.18427  19169048.21066  22989934.274    22989932.899    22989936.452  
     -2752.892       -2145.111          46.000          40.000  
  23289463.90628  18159004.41467  21028382.455    21028381.791    21028384.717  
      1988.763        1549.685          53.000          45.000  
  23756773.89228  18513800.18067  20243991.013    20243989.375    20243994.990  
       275.858         214.954          52.000          46.000  
  24381189.63327  18994187.81867  21698130.202    21698129.317    21698135.185  
     -1909.536       -1487.950          47.000          43.000  
  23005617.51427  17935029.57666  23297312.608    23297311.657    23297317.724  
      3140.938        2447.484          45.000          40.000  
  22892681.37026  17844536.29766  23570942.554    23570941.862    23570945.727  
      3572.998        2784.154          41.000          38.000  
  24413716.74528  19018547.35467  21057143.642    21057142.745    21057148.206  
     -2019.369       -1573.534          52.000          47.000  
 19  4  7 18 26 10.0000000  0  9G23G18G16G07G08G09G30G11G27
  24787227.83427  19306388.32466  22859014.152    22859013.120    22859015.270  
     -3187.912       -2484.087          44.000          39.000  
  -1842727.03127  -1394454.51166  23932352.693    23932351.806    23932357.531  
      3491.789        2720.875          42.000          39.000  
  24638989.84627  19190499.11566  22995172.773    22995171.404    22995175.033  
     -2753.677       -2145.722          45.000          40.000  
  23269588.53028  18143517.11167  21024600.306    21024599.607    21024602.561  
      1985.243        1546.943          53.000          45.000  
  23754042.15128  18511671.55067  20243471.187    20243469.538    20243475.166  
       269.524         210.019          52.000          46.000  
  24400304.37827  19009082.41567  21701767.592    21701766.674    21701772.632  
     -1914.564       -1491.868          47.000          43.000  
  22974209.57427  17910555.86366  23291335.877    23291334.923    23291341.042  
      3139.466        2446.337          45.000          41.000  
  22856952.80127  17816695.89266  23564143.505    23564142.805    23564146.895  
      3571.658        2783.110          42.000          38.000  
  24433931.40528  19034299.04267  21060990.375    21060989.455    21060994.937  
     -2024.522       -1577.550          52.000          46.000  
 19  4  7 18 26 20.0000000  0  9G23G18G16G07G08G09G30G11G27
  24819115.09627  19331235.51166  22865082.026    22865081.134    22865083.311  
     -3189.477       -2485.307          45.000          39.000  
  -1877646.27227  -1421664.28966  23925707.621    23925706.904    23925712.629  
      3491.572        2720.705          42.000          38.000  
  24666526.44927  19211956.19166  23000412.781    23000411.435    23000415.110  
     -2753.779       -2145.802          45.000          40.000  
  23249749.40328  18128058.06167  21020825.027    21020824.335    21020827.314  
      1982.638        1544.913          52.000          45.000  
  23751375.15528  18509593.37267  20242963.668    20242962.029    20242967.664  
       263.723         205.498          52.000          46.000  
  24419473.34227  19024019.26267  21705415.391    21705414.403    21705420.349  
     -1919.295       -1495.555          47.000          43.000  
  22942814.48127  17886092.16666  23285361.608    23285360.626    23285366.771  
      3139.068        2446.027          45.000          41.000  
  22821237.69827  17788865.96066  23557347.196    23557346.434    23557350.502  
      3571.320        2782.847          42.000          38.000  
  24454199.20828  19050092.12467  21064847.247    21064846.290    21064851.773  
     -2029.302       -1581.274          52.000          46.000  
 19  4  7 18 26 30.0000000  0  9G23G18G16G07G08G09G30G11G27
  24851022.84327  19356098.68566  22871153.832    22871152.943    22871155.084  
     -3192.477       -2487.644          44.000          39.000  
  -1912562.71227  -1448871.88966  23919063.333    23919062.509    23919068.272  
      3490.808        2720.110          42.000          38.000  
  24694065.74127  19233415.36066  23005653.385    23005651.995    23005655.689  
     -2754.416       -2146.298          45.000          40.000  
  23229941.51928  18112623.33967  21017055.748    21017055.012    21017057.986  
      1978.624        1541.785          52.000          45.000  
  23748767.80128  18507561.66967  20242467.485    20242465.859    20242471.512  
       257.403         200.574          52.000          46.000  
  24438691.25627  19038994.24867  21709072.412    21709071.439    21709077.414  
     -1924.745       -1499.801          47.000          43.000  
  22911427.07827  17861634.45566  23279388.805    23279387.852    23279393.976  
      3137.781        2445.024          45.000          41.000  
  22785530.89227  17761042.48966  23550552.508    23550551.727    23550555.720  
      3569.818        2781.676          42.000          38.000  
  24474514.80728  19065922.45767  21068713.141    21068712.240    21068717.703  
     -2034.248       -1585.128          52.000          47.000  
 19  4  7 18 26 40.0000000  0  9G23G18G16G07G08G09G30G11G27
  24882956.66827  19380982.18366  22877230.617    22877229.787    22877231.957  
     -3195.108       -2489.695          44.000          39.000  
  -1947470.48027  -1476072.69166  23912420.538    23912419.706    23912425.493  
      3489.912        2719.412          43.000          38.000  
  24721613.37427  19254881.05166  23010895.588    23010894.138    23010897.823  
     -2755.705       -2147.303          46.000          40.000  
  23210170.48628  18097217.35067  21013293.445    21013292.691    21013295.671  
      1974.789        1538.797          52.000          45.000  
  23746225.67028  18505580.78267  20241983.761    20241982.111    20241987.750  
       250.540         195.226          52.000          46.000  
  24457963.64127  19054011.68867  21712739.786    21712738.828    21712744.848  
     -1930.439       -1504.238          46.000          43.000  
  22880053.10027  17837187.21166  23273418.461    23273417.548    23273423.661  
      3136.286        2443.859          45.000          41.000  
  22749838.34627  17733230.12666  23543760.475    23543759.661    23543763.622  
      3567.641        2779.980          42.000          38.000  
  24494883.77228  19081794.38167  21072589.186    21072588.314    21072593.810  
     -2039.955       -1589.575          52.000          46.000  
 19  4  7 18 26 50.0000000  0  9G23G18G16G07G08G09G30G11G27
  24914913.94327  19405883.93566  22883311.958    22883311.096    22883313.267  
     -3197.387       -2491.470          44.000          39.000  
  -1982371.97127  -1503268.62766  23905778.952    23905778.152    23905783.778  
      3488.834        2718.572          42.000          38.000  
  24749166.86727  19276351.29066  23016138.853    23016137.388    23016141.081  
     -2756.291       -2147.759          45.000          40.000  
  23190433.98028  18081838.25167  21009537.702    21009536.932    21009539.950  
      1971.367        1536.130          52.000          45.000  
  23743746.23328  18503648.75867  20241511.951    20241510.291    20241515.947  
       244.200         190.286          52.000          46.000  
  24477287.97127  19069069.58967  21716417.095    21716416.129    21716422.096  
     -1935.579       -1508.243          47.000          43.000  
  22848690.15227  17812748.56366  23267450.392    23267449.375    23267455.491  
      3135.333        2443.117          46.000          41.000  
  22714157.72427  17705427.05466  23536970.703    23536969.795    23536973.856  
      3566.963        2779.452          42.000          38.000  
  24515303.57128  19097705.90167  21076474.925    21076474.087    21076479.580  
     -2045.074       -1593.564          52.000          46.000  
 19  4  7 18 27  0.0000000  0  9G23G18G16G07G08G09G30G11G27
  24946896.90327  19430805.70866  22889398.169    22889397.324    22889399.426  
     -3199.416       -2493.051          45.000          39.000  
  -2017264.73927  -1530457.75566  23899138.939    23899138.157    23899143.845  
      3488.762        2718.516          42.000          38.000  
  24776728.38127  19297827.78666  23021383.583    23021382.209    23021385.844  
     -2756.144       -2147.645          45.000          40.000  
  23170734.38728  18066487.91867  21005788.992    21005788.229    21005791.233  
      1968.344        1533.775          52.000          45.000  
  23741331.81428  18501767.39267  20241052.514    20241050.857    20241056.485  
       238.432         185.791          52.000          46.000  
  24496666.38727  19084169.65967  21720104.758    21720103.715    21720109.707  
     -1940.242       -1511.877          47.000          43.000  
  22817340.56927  17788320.31966  23261484.703    23261483.772    23261489.865  
      3134.466        2442.441          45.000          41.000  
  22678491.37227  17677635.11166  23530183.501    23530182.595    23530186.769  
      3565.871        2778.601          42.000          38.000  
  24535776.36028  19113658.72367  21080370.723    21080369.922    21080375.425  
     -2049.858       -1597.292          52.000          47.000  
 19  4  7 18 27 10.0000000  0  9G23G18G16G07G08G09G30G11G27
  24978902.97127  19455745.49066  22895488.773    22895487.908    22895489.947  
     -3201.948       -2495.024          45.000          39.000  
  -2052151.09827  -1557641.88666  23892500.228    23892499.542    23892505.207  
      3487.989        2717.914          42.000          38.000  
  24804295.56327  19319308.69966  23026629.451    23026628.045    23026631.656  
     -2757.305       -2148.549          45.000          40.000  
  23151069.31528  18051164.49467  21002046.869    21002046.070    21002049.090  
      1964.568        1530.832          52.000          45.000  
  23738979.96028  18499934.78067  20240605.001    20240603.319    20240608.962  
       231.821         180.640          52.000          46.000  
  24516096.43227  19099309.93667  21723802.126    21723801.135    21723807.126  
     -1945.695       -1516.126          47.000          43.000  
  22786002.01027  17763900.68366  23255521.030    23255520.216    23255526.375  
      3133.044        2441.333          45.000          41.000  
  22642836.97427  17649852.49166  23523398.663    23523397.718    23523401.993  
      3564.602        2777.612          42.000          38.000  
  24556299.64728  19129650.89167  21084276.248    21084275.389    21084280.887  
     -2055.055       -1601.342          52.000          46.000  
 19  4  7 18 27 20.0000000  0  9G23G18G16G07G08G09G30G11G27
  25010931.45327  19480702.73566  22901583.543    22901582.684    22901584.742  
     -3204.013       -2496.633          44.000          39.000  
  -2087031.60127  -1584821.46566  23885862.802    23885861.883    23885867.577  
      3487.791        2717.759          42.000          38.000  
  24831867.68727  19340793.45366  23031876.316    23031874.849    23031878.534  
     -2757.487       -2148.691          45.000          40.000  
  23131438.23328  18035867.54567  20998311.279    20998310.413    20998313.425  
      1961.314        1528.297          52.000          45.000  
  23736689.93728  18498150.34567  20240169.241    20240167.547    20240173.195  
       225.760         175.917          52.000          46.000  
  24535577.43727  19114489.94367  21727509.215    21727508.237    21727514.246  
     -1950.791       -1520.097          47.000          43.000  
  22754673.98127  17739489.24866  23249559.484    23249558.679    23249564.875  
      3131.944        2440.476          45.000          41.000  
  22607193.99027  17622078.76266  23516615.968    23516615.081    23516619.424  
      3563.492        2776.747          42.000          38.000  
  24576872.75128  19145681.87467  21088191.196    21088190.334    21088195.811  
     -2059.968       -1605.170          52.000          46.000  
 19  4  7 18 27 30.0000000  0  9G23G18G16G07G08G09G30G11G27
  25042983.10527  19505678.04166  22907682.755    22907681.970    22907684.010  
     -3206.882       -2498.869          45.000          39.000  
  -2121905.16027  -1611995.62166  23879226.565    23879225.638    23879231.283  
      3486.460        2716.722          42.000          38.000  
  24859445.68827  19362282.78566  23037124.329    23037122.824    23037126.506  
     -2758.498       -2149.479          45.000          40.000  
  23111842.12928  18020597.85967  20994582.241    20994581.396    20994584.392  
      1957.430        1525.270          52.000          45.000  
  23734462.85428  18496414.96067  20239745.411    20239743.750    20239749.387  
       218.903         170.574          52.000          46.000  
  24555110.19027  19129710.25567  21731226.146    21731225.193    21731231.216  
     -1956.381       -1524.453          47.000          43.000  
  22723357.41627  17715086.73066  23243600.137    23243599.345    23243605.488  
      3130.605        2439.432          45.000          41.000  
  22571563.41427  17594314.69266  23509835.642    23509834.780    23509839.108  
      3561.681        2775.336          42.000          38.000  
  24597496.46528  19161752.29967  21092115.794    21092114.890    21092120.380  
     -2065.427       -1609.424          52.000          46.000  
 19  4  7 18 27 40.0000000  0  9G23G18G16G07G08G09G30G11G27
  25075058.65527  19530671.97566  22913786.719    22913785.692    22913787.780  
     -3208.442       -2500.085          44.000          39.000  
  -2156770.75727  -1639163.58466  23872591.795    23872590.903    23872596.665  
      3486.334        2716.624          43.000          38.000  
  24887030.38027  19383777.35266  23042373.640    23042372.013    23042375.699  
     -2758.420       -2149.418          45.000          40.000  
  23092281.97928  18005356.19267  20990860.052    20990859.201    20990862.232  
      1954.462        1522.957          52.000          45.000  
  23732299.38628  18494729.14167  20239333.715    20239332.072    20239337.695  
       213.452         166.326          52.000          46.000  
  24574695.43127  19144971.48467  21734953.093    21734952.151    21734958.154  
     -1960.968       -1528.027          47.000          43.000  
  22692053.23427  17690693.86166  23237643.150    23237642.368    23237648.490  
      3130.458        2439.318          45.000          41.000  
  22535946.20326  17566561.01966  23503058.012    23503056.986    23503061.364  
      3561.377        2775.099          41.000          38.000  
  24618171.55628  19177862.75367  21096050.092    21096049.246    21096054.721  
     -2069.750       -1612.792          52.000          46.000  
 19  4  7 18 27 50.0000000  0 10G23G18G16G07G08G09G30G11G28G27
  25107156.17527  19555683.02266  22919894.611    22919893.513    22919895.819  
     -3211.710       -2502.631          44.000          39.000  
  -2191630.23627  -1666326.80366  23865958.357    23865957.466    23865963.156  
      3484.664        2715.323          42.000          39.000  
  24914619.85627  19405275.63966  23047623.723    23047622.114    23047625.893  
     -2760.011       -2150.658          46.000          40.000  
  23072755.93828  17990141.09367  20987144.384    20987143.510    20987146.538  
      1949.970        1519.457          52.000          45.000  
  23730197.54728  18493091.34767  20238933.777    20238932.122    20238937.739  
       206.226         160.696          52.000          46.000  
  24594331.17427  19160272.05467  21738689.601    21738688.686    21738694.706  
     -1966.867       -1532.624          47.000          43.000  
  22660759.60527  17666309.22666  23231688.138    23231687.339    23231693.512  
      3128.036        2437.431          45.000          41.000  
  22500340.52126  17538816.34366  23496282.373    23496281.516    23496285.808  
      3559.089        2773.316          41.000          38.000  
  -1362408.73637  -1048535.35876  24824578.914    24824578.347    24824584.494  
      2395.417        1866.559          42.000          38.000  
  24638896.00128  19194011.67067  21099993.856    21099992.995    21099998.473  
     -2075.735       -1617.456          52.000          46.000  
 19  4  7 18 28  0.0000000  0 10G23G18G16G07G08G09G30G11G28G27
  25139278.24927  19580713.16066  22926007.259    22926006.200    22926008.593  
     -3213.133       -2503.740          45.000          39.000  
  -2226480.89427  -1693483.12066  23859326.594    23859325.606    23859331.295  
      3485.097        2715.660          42.000          39.000  
  24942216.80227  19426779.73466  23052875.376    23052873.674    23052877.366  
     -2759.634       -2150.364          46.000          40.000  
  23053266.81828  17974954.76567  20983435.742    20983434.862    20983437.865  
      1947.520        1517.548          52.000          45.000  
  23728160.15528  18491503.77367  20238546.063    20238544.424    20238550.037  
       200.755         156.432          52.000          46.000  
  24614020.06927  19175614.04167  21742436.294    21742435.391    21742441.397  
     -1971.052       -1535.885          47.000          43.000  
  22629479.34127  17641935.01266  23225735.735    23225734.896    23225741.056  
      3127.902        2437.326          46.000          41.000  
  22464749.18726  17511082.86066  23489509.487    23489508.703    23489513.027  
      3559.097        2773.322          41.000          38.000  
  -1386364.72727  -1067202.33566  24820020.144    24820019.947    24820024.863  
      2395.396        1866.542          42.000          38.000  
  24659672.42328  19210201.08567  21103947.494    21103946.616    21103952.100  
     -2079.608       -1620.474          52.000          46.000  
 19  4  7 18 28 10.0000000  0 10G23G18G16G07G08G09G30G11G28G27
  25171422.11727  19605760.31966  22932124.158    22932123.117    22932125.355  
     -3216.171       -2506.107          45.000          39.000  
  -2261324.96227  -1720634.30666  23852695.869    23852694.993    23852700.632  
      3483.545        2714.451          42.000          38.000  
  24969818.54027  19448287.57166  23058127.864    23058126.174    23058129.795  
     -2760.850       -2151.312          46.000          40.000  
  23033812.00828  17959795.17467  20979733.633    20979732.738    20979735.733  
      1943.172        1514.160          52.000          45.000  
  23726184.52028  18489964.31867  20238170.129    20238168.487    20238174.085  
       193.944         151.125          52.000          46.000  
  24633759.38927  19190995.32067  21746192.564    21746191.654    21746197.656  
     -1976.972       -1540.498          47.000          43.000  
  22598209.84127  17617569.17066  23219785.470    23219784.478    23219790.654  
      3125.803        2435.691          45.000          41.000  
  22429169.69126  17483358.60566  23482738.916    23482738.056    23482742.436  
      3556.924        2771.629          41.000          38.000  
  -1410311.80427  -1085862.37266  24815463.189    24815462.874    24815467.548  
      2393.846        1865.335          43.000          38.000  
  24680498.14828  19226428.92067  21107910.497    21107909.627    21107915.113  
     -2085.593       -1625.137          52.000          46.000  
 19  4  7 18 28 20.0000000  0 10G23G18G16G07G08G09G30G11G28G27
  25203591.53627  19630827.40766  22938245.846    22938244.768    22938246.908  
     -3218.182       -2507.674          43.000          39.000  
  -2296158.70326  -1747777.45166  23846067.248    23846066.359    23846072.053  
      3482.497        2713.634          41.000          38.000  
  24997428.93127  19469802.16166  23063381.939    23063380.280    23063383.867  
     -2761.759       -2152.020          45.000          40.000  
  23014395.46328  17944665.40567  20976038.805    20976037.890    20976040.880  
      1939.539        1511.329          52.000          45.000  
  23724274.57028  18488476.04467  20237806.704    20237805.033    20237810.635  
       187.493         146.098          52.000          46.000  
  24653552.92627  19206418.83667  21749959.169    21749958.252    21749964.228  
     -1981.968       -1544.391          47.000          43.000  
  22566955.09727  17593214.83566  23213837.794    23213836.891    23213843.082  
      3124.555        2434.718          45.000          41.000  
  22393606.13627  17455646.77966  23475971.282    23475970.412    23475974.834  
      3555.102        2770.209          42.000          38.000  
  -1434246.02927  -1104512.38466  24810908.751    24810908.286    24810913.035  
      2392.521        1864.302          44.000          38.000  
  24701376.90728  19242698.07867  21111883.630    21111882.716    21111888.211  
     -2090.583       -1629.026          52.000          46.000  
 19  4  7 18 28 30.0000000  0 10G23G18G16G07G08G09G30G11G28G27
  25235781.22327  19655910.26466  22944371.091    22944370.212    22944372.487  
     -3220.206       -2509.251          43.000          39.000  
  -2330986.98226  -1774916.33566  23839439.584    23839438.725    23839444.376  
      3482.386        2713.548          41.000          38.000  
  25025042.69127  19491319.36166  23068636.608    23068635.028    23068638.556  
     -2761.673       -2151.953          46.000          40.000  
  22995012.13828  17929561.49367  20972350.284    20972349.354    20972352.332  
      1936.454        1508.925          52.000          45.000  
  23722424.92328  18487034.76367  20237454.735    20237453.062    20237458.651  
       181.764         141.634          52.000          46.000  
  24673395.40127  19221880.50867  21753735.085    21753734.165    21753740.172  
     -1986.931       -1548.258          47.000          43.000  
  22535709.95327  17568867.98466  23207891.945    23207891.074    23207897.309  
      3123.836        2434.158          45.000          41.000  
  22358053.31527  17427943.28666  23469205.858    23469204.965    23469209.328  
      3554.610        2769.826          44.000          38.000  
  -1458172.57727  -1123156.43466  24806355.722    24806355.012    24806359.909  
      2391.859        1863.786          43.000          38.000  
  24722303.46628  19259004.48267  21115865.830    21115864.932    21115870.412  
     -2095.233       -1632.649          52.000          46.000  
 19  4  7 18 28 40.0000000  0 10G23G18G16G07G08G09G30G11G28G27
  25267994.42627  19681011.42966  22950501.104    22950500.154    22950502.494  
     -3222.598       -2511.115          45.000          39.000  
  -2365806.40127  -1802048.30266  23832813.641    23832812.791    23832818.453  
      3481.422        2712.796          42.000          38.000  
  25052663.18927  19512841.82466  23073892.604    23073891.029    23073894.532  
     -2762.361       -2152.489          46.000          40.000  
  22975665.47628  17914486.17767  20968668.690    20968667.782    20968670.795  
      1932.539        1505.875          52.000          45.000  
  23720639.21328  18485643.30467  20237114.913    20237113.264    20237118.829  
       175.170         136.496          52.000          46.000  
  24693290.12927  19237382.87467  21757520.986    21757520.011    21757525.985  
     -1992.390       -1552.512          47.000          43.000  
  22504477.92727  17544531.34566  23201948.660    23201947.812    23201954.087  
      3122.279        2432.945          44.000          41.000  
  22322514.76327  17400250.89666  23462443.261    23462442.307    23462446.532  
      3552.703        2768.340          43.000          39.000  
  -1482087.98427  -1141791.80666  24801804.480    24801804.042    24801809.003  
      2390.652        1862.846          43.000          38.000  
  24743281.09728  19275350.68367  21119857.740    21119856.849    21119862.336  
     -2100.735       -1636.936          52.000          46.000  
 19  4  7 18 28 50.0000000  0 10G23G18G16G07G08G09G30G11G28G27
  25300232.03627  19706131.62266  22956635.728    22956634.839    22956637.144  
     -3224.898       -2512.908          44.000          39.000  
  -2400615.86726  -1829172.53166  23826189.505    23826188.742    23826194.445  
      3480.745        2712.269          40.000          37.000  
  25080291.45527  19534370.33866  23079150.021    23079148.486    23079152.036  
     -2763.140       -2153.096          45.000          40.000  
  22956356.45328  17899440.19067  20964994.287    20964993.378    20964996.416  
      1929.247        1503.309          52.000          45.000  
  23718918.12428  18484302.19767  20236787.432    20236785.768    20236791.334  
       168.962         131.659          52.000          46.000  
  24713237.92427  19252926.61367  21761316.888    21761315.958    21761321.927  
     -1997.205       -1556.264          47.000          43.000  
  22473259.99627  17520205.69666  23196008.086    23196007.217    23196013.521  
      3121.216        2432.116          45.000          41.000  
  22286991.41327  17372570.37066  23455683.413    23455682.476    23455686.723  
      3551.645        2767.516          42.000          39.000  
  -1505991.43427  -1160417.85166  24797255.841    24797255.300    24797260.299  
      2389.741        1862.136          44.000          38.000  
  24764310.65928  19291737.35467  21123859.558    21123858.638    21123864.121  
     -2105.564       -1640.699          52.000          46.000  
 19  4  7 18 29  0.0000000  0 10G23G18G16G07G08G09G30G11G28G27
  25332490.63727  19731268.17466  22962774.342    22962773.444    22962775.781  
     -3226.709       -2514.319          44.000          39.000  
  -2435418.57726  -1856291.49866  23819566.606    23819565.891    23819571.684  
      3480.044        2711.723          40.000          37.000  
  25107924.12627  19555902.27866  23084408.279    23084406.838    23084410.381  
     -2763.446       -2153.334          45.000          40.000  
  22937081.97028  17884421.11467  20961326.500    20961325.546    20961328.597  
      1925.862        1500.672          52.000          45.000  
  23717258.59028  18483009.05267  20236471.666    20236469.968    20236475.523  
       162.933         126.961          52.000          46.000  
  24733235.48927  19268509.11867  21765122.300    21765121.359    21765127.388  
     -2001.876       -1559.903          47.000          43.000  
  22442052.98727  17495888.55266  23190069.587    23190068.681    23190075.007  
      3120.324        2431.421          45.000          41.000  
  22251480.23927  17344899.34966  23448925.745    23448924.853    23448929.216  
      3550.711        2766.788          42.000          39.000  
  -1529886.14627  -1179037.07866  24792708.963    24792708.244    24792713.188  
      2389.103        1861.639          44.000          38.000  
  24785388.80528  19308161.87567  21127870.571    21127869.675    21127875.160  
     -2110.110       -1644.242          52.000          46.000  
 19  4  7 18 29 10.0000000  0 10G23G18G16G07G08G09G30G11G28G27
  25364771.03627  19756421.72266  22968917.148    22968916.166    22968918.452  
     -3228.992       -2516.098          44.000          39.000  
  -2470213.33227  -1883404.24566  23812945.301    23812944.629    23812950.484  
      3479.137        2711.016          42.000          37.000  
  25135562.10627  19577438.36766  23089667.631    23089666.197    23089669.748  
     -2764.166       -2153.896          46.000          40.000  
  22917843.07828  17869429.76767  20957665.461    20957664.498    20957667.559  
      1922.229        1497.841          52.000          45.000  
  23715661.43328  18481764.51767  20236167.734    20236166.044    20236171.602  
       156.725         122.123          53.000          46.000  
  24753283.64727  19284131.04567  21768937.303    21768936.388    21768942.404  
     -2007.292       -1564.124          46.000          43.000  
  22410857.89127  17471580.68866  23184133.354    23184132.460    23184138.792  
      3119.326        2430.644          44.000          41.000  
  22215982.31827  17317238.66766  23442170.606    23442169.820    23442174.138  
      3549.289        2765.680          42.000          38.000  
  -1553771.21727  -1197648.79366  24788163.781    24788163.119    24788168.127  
      2388.160        1860.904          43.000          38.000  
  24806516.35428  19324624.89867  21131891.034    21131890.118    21131895.603  
     -2115.051       -1648.092          52.000          46.000  
 19  4  7 18 29 20.0000000  0 10G23G18G16G07G08G09G30G11G28G27
  25397072.66827  19781591.81666  22975064.003    22975062.989    22975065.248  
     -3231.509       -2518.059          44.000          39.000  
  -2505000.56926  -1910511.15566  23806325.610    23806324.773    23806330.549  
      3477.938        2710.082          40.000          37.000  
  25163204.94927  19598978.23866  23094927.918    23094926.483    23094930.021  
     -2764.948       -2154.505          46.000          40.000  
  22898639.40728  17854465.87467  20954011.083    20954010.137    20954013.220  
      1918.107        1494.629          52.000          45.000  
  23714126.17728  18480568.22067  20235875.596    20235873.911    20235879.453  
       150.166         117.012          52.000          46.000  
  24773381.87727  19299791.99967  21772761.864    21772760.961    21772767.010  
     -2012.910       -1568.501          47.000          43.000  
  22379674.36927  17447281.85266  23178199.339    23178198.417    23178204.797  
      3117.238        2429.017          45.000          41.000  
  22180497.31227  17289588.02366  23435418.071    23435417.227    23435421.552  
      3547.754        2764.484          44.000          38.000  
  -1577647.09727  -1216253.34466  24783620.254    24783619.639    24783624.693  
      2386.724        1859.785          44.000          38.000  
  24827692.82528  19341126.03967  21135920.792    21135919.877    21135925.371  
     -2120.528       -1652.359          52.000          46.000  
 19  4  7 18 29 30.0000000  0 10G23G18G16G07G08G09G30G11G28G27
  25429398.29727  19806780.59866  22981215.300    22981214.365    22981216.711  
     -3232.952       -2519.183          43.000          39.000  
  -2539777.32127  -1937609.88466  23799707.822    23799706.984    23799712.782  
      3477.354        2709.626          42.000          37.000  
  25190855.42927  19620524.04366  23100189.695    23100188.216    23100191.741  
     -2765.293       -2154.774          46.000          40.000  
  22879473.85228  17839531.67767  20950363.981    20950363.039    20950366.124  
      1914.866        1492.103          52.000          45.000  
  23712655.51328  18479422.24567  20235595.737    20235594.061    20235599.590  
       144.216         112.376          53.000          46.000  
  24793532.89127  19315494.08667  21776596.418    21776595.546    21776601.625  
     -2017.825       -1572.331          46.000          43.000  
  22348505.29027  17422994.27566  23172268.078    23172267.127    23172273.537  
      3116.513        2428.452          45.000          41.000  
  22145028.07127  17261949.66166  23428668.628    23428667.748    23428671.931  
      3546.380        2763.413          44.000          39.000  
  -1601510.97927  -1234848.55266  24779079.064    24779078.479    24779083.562  
      2386.069        1859.275          45.000          38.000  
  24848920.85428  19357667.35967  21139960.349    21139959.430    21139964.942  
     -2125.260       -1656.047          51.000          46.000  
 19  4  7 18 29 40.0000000  0 10G23G18G16G07G08G09G30G11G28G27
  25461744.84427  19831985.67266  22987370.622    22987369.711    22987372.020  
     -3235.550       -2521.208          44.000          39.000  
  -2574546.34926  -1964702.60066  23793091.435    23793090.660    23793096.422  
      3476.555        2709.004          41.000          37.000  
  25218510.62227  19642073.54266  23105452.306    23105450.835    23105454.314  
     -2765.908       -2155.253          45.000          40.000  
  22860343.55828  17824624.95567  20946723.630    20946722.647    20946725.741  
      1911.386        1489.392          52.000          45.000  
  23711246.70228  18478324.47367  20235327.647    20235325.980    20235331.509  
       137.876         107.436          52.000          46.000  
  24813733.67027  19331234.92767  21780440.583    21780439.669    21780445.722  
     -2022.583       -1576.039          47.000          43.000  
  22317347.79627  17398715.71266  23166338.931    23166338.031    23166344.437  
      3115.349        2427.545          44.000          41.000  
  22109571.71627  17234321.33166  23421921.589    23421920.644    23421924.830  
      3545.020        2762.353          44.000          39.000  
  -1625365.74627  -1253436.65466  24774539.780    24774539.087    24774544.189  
      2385.041        1858.474          46.000          38.000  
  24870197.52828  19374246.57867  21144009.144    21144008.255    21144013.765  
     -2130.010       -1659.748          52.000          46.000  
 19  4  7 18 29 50.0000000  0 10G23G18G16G07G08G09G30G11G28G27
  25494111.47527  19857206.40666  22993529.785    22993528.792    22993531.155  
     -3238.574       -2523.564          43.000          39.000  
  -2609308.37926  -1991789.87066  23786476.383    23786475.583    23786481.327  
      3475.156        2707.914          40.000          37.000  
  25246169.74627  19663626.09866  23110715.697    23110714.163    23110717.689  
     -2766.760       -2155.917          46.000          40.000  
  22841247.90528  17809745.23267  20943089.863    20943088.859    20943091.957  
      1907.244        1486.164          52.000          45.000  
  23709898.79928  18477274.15967  20235071.169    20235069.472    20235075.005  
       131.019         102.093          52.000          46.000  
  24833983.37227  19347013.92467  21784294.005    21784293.062    21784299.105  
     -2028.001       -1580.261          46.000          43.000  
  22286201.19827  17374445.64666  23160411.897    23160411.063    23160417.483  
      3113.551        2426.144          46.000          41.000  
  22074127.58227  17206702.53366  23415176.760    23415175.794    23415179.975  
      3543.235        2760.962          43.000          39.000  
  -1649212.13427  -1272018.24066  24770001.934    24770001.196    24770006.286  
      2383.734        1857.455          45.000          38.000  
  24891521.91528  19390862.98167  21148067.048    21148066.163    21148071.672  
     -2135.391       -1663.941          51.000          46.000  
 19  4  7 18 30  0.0000000  0 10G23G18G16G07G08G09G30G11G28G27
  25526505.25427  19882448.29466  22999694.042    22999693.106    22999695.534  
     -3239.973       -2524.654          44.000          39.000  
  -2644056.13526  -2018866.01266  23779864.009    23779863.154    23779869.021  
